{"type":"FeatureCollection","features":[{"type":"Feature","properties":{"school_nm":"CICS - Northtown","network_num":"Network 1","school_id":400034,"y":41.99024501,"sch_type":"Charter","sch_addr":"3900 W Peterson Ave, 60659","x":-87.72650426,"grades":"9, 10, 11, 12","act_composite_avg":19.4,"pct_free_red_lunch":78.74,"dropout_rate_16":13.2,"grad_rate_16":83.3,"Enrollment_Pct":76.6},"geometry":{"type":"Point","coordinates":[-87.72650426,41.99024501]}},{"type":"Feature","properties":{"school_nm":"CICS - Ellison","network_num":"Network 11","school_id":400032,"y":41.74838241,"sch_type":"Charter","sch_addr":"1817 W 80th St, 60620","x":-87.66897964,"grades":"9, 10, 11, 12","act_composite_avg":16.3,"pct_free_red_lunch":92.97,"dropout_rate_16":17.5,"grad_rate_16":78.6,"Enrollment_Pct":64.3},"geometry":{"type":"Point","coordinates":[-87.66897964,41.74838241]}},{"type":"Feature","properties":{"school_nm":"CICS - Longwood","network_num":"Network 11","school_id":400033,"y":41.72013,"sch_type":"Charter","sch_addr":"1309 W 95th St, 60643","x":-87.65663,"grades":"9, 10, 11, 12","act_composite_avg":15.4,"pct_free_red_lunch":91.26,"dropout_rate_16":15.2,"grad_rate_16":82.6,"Enrollment_Pct":64.9},"geometry":{"type":"Point","coordinates":[-87.65663,41.72013]}},{"type":"Feature","properties":{"school_nm":"Noble - Johnson","network_num":"Network 11","school_id":400106,"y":41.7783695,"sch_type":"Charter","sch_addr":"6350 S Stewart Ave, 60621","x":-87.6351167,"grades":"9, 10, 11, 12","act_composite_avg":18.2,"pct_free_red_lunch":95.02,"dropout_rate_16":18,"grad_rate_16":77.4,"Enrollment_Pct":81.3},"geometry":{"type":"Point","coordinates":[-87.6351167,41.7783695]}},{"type":"Feature","properties":{"school_nm":"Perspectives - Leadership Academy","network_num":"Network 11","school_id":400061,"y":41.74596083,"sch_type":"Charter","sch_addr":"8131 S May St, 60620","x":-87.65204509,"grades":"6, 7, 8, 9, 10, 11, 12","act_composite_avg":16.8,"pct_free_red_lunch":91.06,"dropout_rate_16":23.6,"grad_rate_16":75.2,"Enrollment_Pct":53.2},"geometry":{"type":"Point","coordinates":[-87.65204509,41.74596083]}},{"type":"Feature","properties":{"school_nm":"Perspectives - Tech","network_num":"Network 11","school_id":400062,"y":41.74594902,"sch_type":"Charter","sch_addr":"8131 S May St, 60620","x":-87.65065702,"grades":"9, 10, 11, 12","act_composite_avg":16.5,"pct_free_red_lunch":91.86,"dropout_rate_16":25,"grad_rate_16":73.1,"Enrollment_Pct":75.7},"geometry":{"type":"Point","coordinates":[-87.65065702,41.74594902]}},{"type":"Feature","properties":{"school_nm":"Urban Prep - Englewood","network_num":"Network 11","school_id":400086,"y":41.78149782,"sch_type":"Charter","sch_addr":"6201 S Stewart Ave, 60621","x":-87.63435669,"grades":"9, 10, 11, 12","act_composite_avg":16.7,"pct_free_red_lunch":86.46,"dropout_rate_16":23.5,"grad_rate_16":71.3,"Enrollment_Pct":67.1},"geometry":{"type":"Point","coordinates":[-87.63435669,41.78149782]}},{"type":"Feature","properties":{"school_nm":"Epic Academy","network_num":"Network 12","school_id":400094,"y":41.74484911,"sch_type":"Charter","sch_addr":"8255 S Houston Ave, 60617","x":-87.55022237,"grades":"9, 10, 11, 12","act_composite_avg":17.5,"pct_free_red_lunch":95.21,"dropout_rate_16":21.1,"grad_rate_16":69.9,"Enrollment_Pct":72.7},"geometry":{"type":"Point","coordinates":[-87.55022237,41.74484911]}},{"type":"Feature","properties":{"school_nm":"Noble - Comer","network_num":"Network 12","school_id":400052,"y":41.76408299,"sch_type":"Charter","sch_addr":"7200 S Ingleside Ave, 60619","x":-87.60197357,"grades":"6, 7, 8, 9, 10, 11, 12","act_composite_avg":17.9,"pct_free_red_lunch":85.6,"dropout_rate_16":10.7,"grad_rate_16":88.1,"Enrollment_Pct":84.2},"geometry":{"type":"Point","coordinates":[-87.60197357,41.76408299]}},{"type":"Feature","properties":{"school_nm":"CICS - Hawkins","network_num":"Network 13","school_id":400108,"y":41.65314106,"sch_type":"Charter","sch_addr":"801 E 133rd Pl, 60827","x":-87.60187328,"grades":"7, 8, 9, 10, 11, 12","act_composite_avg":14.3,"pct_free_red_lunch":"No Data","dropout_rate_16":45.1,"grad_rate_16":51.2,"Enrollment_Pct":36.1},"geometry":{"type":"Point","coordinates":[-87.60187328,41.65314106]}},{"type":"Feature","properties":{"school_nm":"Chicago Math & Science Academy","network_num":"Network 2","school_id":400035,"y":42.01303149,"sch_type":"Charter","sch_addr":"7212 N Clark St, 60626","x":-87.67481842,"grades":"6, 7, 8, 9, 10, 11, 12","act_composite_avg":20.8,"pct_free_red_lunch":94.17,"dropout_rate_16":8.6,"grad_rate_16":85.2,"Enrollment_Pct":72},"geometry":{"type":"Point","coordinates":[-87.67481842,42.01303149]}},{"type":"Feature","properties":{"school_nm":"Noble - Pritzker","network_num":"Network 4","school_id":400054,"y":41.91521411,"sch_type":"Charter","sch_addr":"4131 W Cortland Ave, 60639","x":-87.73012672,"grades":"9, 10, 11, 12","act_composite_avg":21.9,"pct_free_red_lunch":94.44,"dropout_rate_16":8.8,"grad_rate_16":90.3,"Enrollment_Pct":85.7},"geometry":{"type":"Point","coordinates":[-87.73012671,41.91521411]}},{"type":"Feature","properties":{"school_nm":"Noble - Rowe Clark","network_num":"Network 5","school_id":400056,"y":41.89536226,"sch_type":"Charter","sch_addr":"3645 W Chicago Ave, 60651","x":-87.71804677,"grades":"9, 10, 11, 12","act_composite_avg":18.5,"pct_free_red_lunch":95.34,"dropout_rate_16":14.5,"grad_rate_16":82.4,"Enrollment_Pct":76.9},"geometry":{"type":"Point","coordinates":[-87.71804677,41.89536226]}},{"type":"Feature","properties":{"school_nm":"North Lawndale - Collins","network_num":"Network 5","school_id":400059,"y":41.86414584,"sch_type":"Charter","sch_addr":"1313 S Sacramento Dr, 60623","x":-87.7006806,"grades":"9, 10, 11, 12","act_composite_avg":14.5,"pct_free_red_lunch":97.52,"dropout_rate_16":20.2,"grad_rate_16":69.7,"Enrollment_Pct":63.2},"geometry":{"type":"Point","coordinates":[-87.7006806,41.86414584]}},{"type":"Feature","properties":{"school_nm":"North Lawndale - Christiana","network_num":"Network 5","school_id":400058,"y":41.85856355,"sch_type":"Charter","sch_addr":"1615 S. Christiana Ave., 60623","x":-87.70898711,"grades":"9, 10, 11, 12","act_composite_avg":15.3,"pct_free_red_lunch":96.83,"dropout_rate_16":27.8,"grad_rate_16":67.1,"Enrollment_Pct":65.8},"geometry":{"type":"Point","coordinates":[-87.70898711,41.85856355]}},{"type":"Feature","properties":{"school_nm":"Noble - Chicago Bulls","network_num":"Network 6","school_id":400097,"y":41.87880881,"sch_type":"Charter","sch_addr":"2040 W Adams St, 60612","x":-87.67819526,"grades":"9, 10, 11, 12","act_composite_avg":21.7,"pct_free_red_lunch":88.22,"dropout_rate_16":23.9,"grad_rate_16":71.5,"Enrollment_Pct":84.4},"geometry":{"type":"Point","coordinates":[-87.67819526,41.87880881]}},{"type":"Feature","properties":{"school_nm":"Noble - Golder","network_num":"Network 6","school_id":400053,"y":41.89528219,"sch_type":"Charter","sch_addr":"1454 W Superior St, 60642","x":-87.664483,"grades":"9, 10, 11, 12","act_composite_avg":19.5,"pct_free_red_lunch":91.13,"dropout_rate_16":14.9,"grad_rate_16":81.7,"Enrollment_Pct":80.5},"geometry":{"type":"Point","coordinates":[-87.664483,41.89528219]}},{"type":"Feature","properties":{"school_nm":"Noble - Muchin","network_num":"Network 6","school_id":400098,"y":41.88274026,"sch_type":"Charter","sch_addr":"1 N State St, 60602","x":-87.62633828,"grades":"9, 10, 11, 12","act_composite_avg":21.8,"pct_free_red_lunch":84.78,"dropout_rate_16":12.3,"grad_rate_16":86.4,"Enrollment_Pct":88.4},"geometry":{"type":"Point","coordinates":[-87.62633828,41.88274026]}},{"type":"Feature","properties":{"school_nm":"Noble - Noble","network_num":"Network 6","school_id":400051,"y":41.90019052,"sch_type":"Charter","sch_addr":"1010 N Noble St, 60642","x":-87.66262778,"grades":"9, 10, 11, 12","act_composite_avg":21.2,"pct_free_red_lunch":84.43,"dropout_rate_16":7.2,"grad_rate_16":92.8,"Enrollment_Pct":84.7},"geometry":{"type":"Point","coordinates":[-87.66262778,41.90019052]}},{"type":"Feature","properties":{"school_nm":"Noble - Rauner","network_num":"Network 6","school_id":400055,"y":41.89242501,"sch_type":"Charter","sch_addr":"1337 W Ohio St, 60642","x":-87.66085887,"grades":"9, 10, 11, 12","act_composite_avg":20.9,"pct_free_red_lunch":81.66,"dropout_rate_16":10.9,"grad_rate_16":85.6,"Enrollment_Pct":77.2},"geometry":{"type":"Point","coordinates":[-87.66085887,41.89242501]}},{"type":"Feature","properties":{"school_nm":"Noble - UIC","network_num":"Network 6","school_id":400057,"y":41.86581741,"sch_type":"Charter","sch_addr":"1231 S Damen Ave, 60608","x":-87.67611093,"grades":"9, 10, 11, 12","act_composite_avg":22.2,"pct_free_red_lunch":83.61,"dropout_rate_16":15.8,"grad_rate_16":83.3,"Enrollment_Pct":88},"geometry":{"type":"Point","coordinates":[-87.67611093,41.86581741]}},{"type":"Feature","properties":{"school_nm":"Perspectives - Joslin","network_num":"Network 6","school_id":400064,"y":41.85599911,"sch_type":"Charter","sch_addr":"1930 S Archer Ave, 60616","x":-87.6285309,"grades":"6, 7, 8, 9, 10, 11, 12","act_composite_avg":17.5,"pct_free_red_lunch":81.22,"dropout_rate_16":12.5,"grad_rate_16":85.7,"Enrollment_Pct":81.6},"geometry":{"type":"Point","coordinates":[-87.6285309,41.8559991]}},{"type":"Feature","properties":{"school_nm":"Urban Prep - West","network_num":"Network 6","school_id":400102,"y":41.86254002,"sch_type":"Charter","sch_addr":"1326 W 14th Pl, 60608","x":-87.66010654,"grades":"9, 10, 11, 12","act_composite_avg":16.6,"pct_free_red_lunch":85.61,"dropout_rate_16":31.3,"grad_rate_16":64.1,"Enrollment_Pct":74.6},"geometry":{"type":"Point","coordinates":[-87.66010654,41.86254002]}},{"type":"Feature","properties":{"school_nm":"Instituto - Health Sciences","network_num":"Network 7","school_id":400104,"y":41.84596659,"sch_type":"Charter","sch_addr":"2520 S Western Ave, 60608","x":-87.68724016,"grades":"9, 10, 11, 12","act_composite_avg":16.7,"pct_free_red_lunch":98.02,"dropout_rate_16":13.6,"grad_rate_16":82.8,"Enrollment_Pct":56.4},"geometry":{"type":"Point","coordinates":[-87.68724016,41.84596659]}},{"type":"Feature","properties":{"school_nm":"UNO  - Garcia","network_num":"Network 8","school_id":400085,"y":41.80917079,"sch_type":"Charter","sch_addr":"4248 W 47th St, 60632","x":-87.73046685,"grades":"9, 10, 11, 12","act_composite_avg":17.7,"pct_free_red_lunch":92.79,"dropout_rate_16":6.8,"grad_rate_16":84.5,"Enrollment_Pct":63},"geometry":{"type":"Point","coordinates":[-87.73046685,41.80917079]}},{"type":"Feature","properties":{"school_nm":"Perspectives - Math & Science","network_num":"Network 9","school_id":400066,"y":41.82778386,"sch_type":"Charter","sch_addr":"3663 S Wabash Ave, 60653","x":-87.62478772,"grades":"6, 7, 8, 9, 10, 11, 12","act_composite_avg":17.3,"pct_free_red_lunch":89.98,"dropout_rate_16":21.9,"grad_rate_16":78.1,"Enrollment_Pct":62.3},"geometry":{"type":"Point","coordinates":[-87.62478772,41.82778386]}},{"type":"Feature","properties":{"school_nm":"University of Chicago - Woodlawn","network_num":"Network 9","school_id":400077,"y":41.7781297,"sch_type":"Charter","sch_addr":"6420 S University Ave, 60637","x":-87.59811392,"grades":"6, 7, 8, 9, 10, 11, 12","act_composite_avg":17.2,"pct_free_red_lunch":82.48,"dropout_rate_16":19.6,"grad_rate_16":76.3,"Enrollment_Pct":80.4},"geometry":{"type":"Point","coordinates":[-87.59811392,41.7781297]}},{"type":"Feature","properties":{"school_nm":"Urban Prep  - Bronzeville","network_num":"Network 9","school_id":400105,"y":41.83111753,"sch_type":"Charter","sch_addr":"521 E 35th St, 60616","x":-87.61362865,"grades":"9, 10, 11, 12","act_composite_avg":16.6,"pct_free_red_lunch":78.63,"dropout_rate_16":16,"grad_rate_16":82.4,"Enrollment_Pct":75},"geometry":{"type":"Point","coordinates":[-87.61362865,41.83111753]}},{"type":"Feature","properties":{"school_nm":"Young Women's Leadership","network_num":"Network 9","school_id":400087,"y":41.84454381,"sch_type":"Charter","sch_addr":"2641 S Calumet Ave, 60616","x":-87.6187238,"grades":"7, 8, 9, 10, 11, 12","act_composite_avg":15.7,"pct_free_red_lunch":90.73,"dropout_rate_16":29.6,"grad_rate_16":66.7,"Enrollment_Pct":61.4},"geometry":{"type":"Point","coordinates":[-87.6187238,41.84454381]}}]}