{"type":"FeatureCollection","features":[{"type":"Feature","properties":{"school_nm":"CHGO MATH & SCI ACAD CHTR HS","network_num":"Network 2","school_id":400035,"y":42.01303149,"sch_type":"Charter","sch_addr":"7212 N Clark St, 60626","x":-87.67481842,"grades":"6, 7, 8, 9, 10, 11, 12"},"geometry":{"type":"Point","coordinates":[-87.67481842,42.01303149]}},{"type":"Feature","properties":{"school_nm":"CICS - ELLISON","network_num":"Network 11","school_id":400032,"y":41.74838241,"sch_type":"Charter","sch_addr":"1817 W 80th St, 60620","x":-87.66897964,"grades":"9, 10, 11, 12"},"geometry":{"type":"Point","coordinates":[-87.66897964,41.74838241]}},{"type":"Feature","properties":{"school_nm":"CICS - HAWKINS","network_num":"Network 13","school_id":400108,"y":41.65314106,"sch_type":"Charter","sch_addr":"801 E 133rd Pl, 60827","x":-87.60187328,"grades":"7, 8, 9, 10, 11, 12"},"geometry":{"type":"Point","coordinates":[-87.60187328,41.65314106]}},{"type":"Feature","properties":{"school_nm":"CICS - NORTHTOWN","network_num":"Network 1","school_id":400034,"y":41.99024501,"sch_type":"Charter","sch_addr":"3900 W Peterson Ave, 60659","x":-87.72650426,"grades":"9, 10, 11, 12"},"geometry":{"type":"Point","coordinates":[-87.72650426,41.99024501]}},{"type":"Feature","properties":{"school_nm":"EPIC CHTR HS","network_num":"Network 12","school_id":400094,"y":41.74484911,"sch_type":"Charter","sch_addr":"8255 S Houston Ave, 60617","x":-87.55022237,"grades":"9, 10, 11, 12"},"geometry":{"type":"Point","coordinates":[-87.55022237,41.74484911]}},{"type":"Feature","properties":{"school_nm":"INSTITUTO CHTR - HEALTH SCIENCES","network_num":"Network 7","school_id":400104,"y":41.84596659,"sch_type":"Charter","sch_addr":"2520 S Western Ave, 60608","x":-87.68724016,"grades":"9, 10, 11, 12"},"geometry":{"type":"Point","coordinates":[-87.68724016,41.84596659]}},{"type":"Feature","properties":{"school_nm":"NOBLE CHTR - CHGO BULLS","network_num":"Network 6","school_id":400097,"y":41.87880881,"sch_type":"Charter","sch_addr":"2040 W Adams St, 60612","x":-87.67819526,"grades":"9, 10, 11, 12"},"geometry":{"type":"Point","coordinates":[-87.67819526,41.87880881]}},{"type":"Feature","properties":{"school_nm":"NOBLE CHTR - COMER","network_num":"Network 12","school_id":400052,"y":41.76408299,"sch_type":"Charter","sch_addr":"7200 S Ingleside Ave, 60619","x":-87.60197357,"grades":"6, 7, 8, 9, 10, 11, 12"},"geometry":{"type":"Point","coordinates":[-87.60197357,41.76408299]}},{"type":"Feature","properties":{"school_nm":"NOBLE CHTR - GOLDER","network_num":"Network 6","school_id":400053,"y":41.89528219,"sch_type":"Charter","sch_addr":"1454 W Superior St, 60642","x":-87.664483,"grades":"9, 10, 11, 12"},"geometry":{"type":"Point","coordinates":[-87.664483,41.89528219]}},{"type":"Feature","properties":{"school_nm":"NOBLE CHTR - JOHNSON","network_num":"Network 11","school_id":400106,"y":41.7783695,"sch_type":"Charter","sch_addr":"6350 S Stewart Ave, 60621","x":-87.6351167,"grades":"9, 10, 11, 12"},"geometry":{"type":"Point","coordinates":[-87.6351167,41.7783695]}},{"type":"Feature","properties":{"school_nm":"NOBLE CHTR - MUCHIN","network_num":"Network 6","school_id":400098,"y":41.88274026,"sch_type":"Charter","sch_addr":"1 N State St, 60602","x":-87.62633828,"grades":"9, 10, 11, 12"},"geometry":{"type":"Point","coordinates":[-87.62633828,41.88274026]}},{"type":"Feature","properties":{"school_nm":"NOBLE CHTR - NOBLE","network_num":"Network 6","school_id":400051,"y":41.90019052,"sch_type":"Charter","sch_addr":"1010 N Noble St, 60642","x":-87.66262778,"grades":"9, 10, 11, 12"},"geometry":{"type":"Point","coordinates":[-87.66262778,41.90019052]}},{"type":"Feature","properties":{"school_nm":"NOBLE CHTR - PRITZKER","network_num":"Network 4","school_id":400054,"y":41.91521411,"sch_type":"Charter","sch_addr":"4131 W Cortland Ave, 60639","x":-87.73012672,"grades":"9, 10, 11, 12"},"geometry":{"type":"Point","coordinates":[-87.73012671,41.91521411]}},{"type":"Feature","properties":{"school_nm":"NOBLE CHTR - RAUNER","network_num":"Network 6","school_id":400055,"y":41.89242501,"sch_type":"Charter","sch_addr":"1337 W Ohio St, 60642","x":-87.66085887,"grades":"9, 10, 11, 12"},"geometry":{"type":"Point","coordinates":[-87.66085887,41.89242501]}},{"type":"Feature","properties":{"school_nm":"NOBLE CHTR - ROWE CLARK","network_num":"Network 5","school_id":400056,"y":41.89536226,"sch_type":"Charter","sch_addr":"3645 W Chicago Ave, 60651","x":-87.71804677,"grades":"9, 10, 11, 12"},"geometry":{"type":"Point","coordinates":[-87.71804677,41.89536226]}},{"type":"Feature","properties":{"school_nm":"NOBLE CHTR - UIC","network_num":"Network 6","school_id":400057,"y":41.86581741,"sch_type":"Charter","sch_addr":"1231 S Damen Ave, 60608","x":-87.67611093,"grades":"9, 10, 11, 12"},"geometry":{"type":"Point","coordinates":[-87.67611093,41.86581741]}},{"type":"Feature","properties":{"school_nm":"NORTH LAWNDALE CHTR - COLLINS","network_num":"Network 5","school_id":400059,"y":41.86414584,"sch_type":"Charter","sch_addr":"1313 S Sacramento Dr, 60623","x":-87.7006806,"grades":"9, 10, 11, 12"},"geometry":{"type":"Point","coordinates":[-87.7006806,41.86414584]}},{"type":"Feature","properties":{"school_nm":"NTH LAWNDALE CHTR - CHRISTIANA","network_num":"Network 5","school_id":400058,"y":41.85856355,"sch_type":"Charter","sch_addr":"1615 S. Christiana Ave., 60623","x":-87.70898711,"grades":"9, 10, 11, 12"},"geometry":{"type":"Point","coordinates":[-87.70898711,41.85856355]}},{"type":"Feature","properties":{"school_nm":"PERSPECTIVES CHTR - MATH & SCIENCE","network_num":"Network 9","school_id":400066,"y":41.82778386,"sch_type":"Charter","sch_addr":"3663 S Wabash Ave, 60653","x":-87.62478772,"grades":"6, 7, 8, 9, 10, 11, 12"},"geometry":{"type":"Point","coordinates":[-87.62478772,41.82778386]}},{"type":"Feature","properties":{"school_nm":"PERSPECTIVES CHTR - JOSLIN","network_num":"Network 6","school_id":400064,"y":41.85599911,"sch_type":"Charter","sch_addr":"1930 S Archer Ave, 60616","x":-87.6285309,"grades":"6, 7, 8, 9, 10, 11, 12"},"geometry":{"type":"Point","coordinates":[-87.6285309,41.8559991]}},{"type":"Feature","properties":{"school_nm":"PERSPECTIVES CHTR - LEADERSHIP ACADEMY","network_num":"Network 11","school_id":400061,"y":41.74596083,"sch_type":"Charter","sch_addr":"8131 S May St, 60620","x":-87.65204509,"grades":"6, 7, 8, 9, 10, 11, 12"},"geometry":{"type":"Point","coordinates":[-87.65204509,41.74596083]}},{"type":"Feature","properties":{"school_nm":"PERSPECTIVES CHTR - TECH HS","network_num":"Network 11","school_id":400062,"y":41.74594902,"sch_type":"Charter","sch_addr":"8131 S May St, 60620","x":-87.65065702,"grades":"9, 10, 11, 12"},"geometry":{"type":"Point","coordinates":[-87.65065702,41.74594902]}},{"type":"Feature","properties":{"school_nm":"UNIV OF CHGO CHTR - WOODLAWN","network_num":"Network 9","school_id":400077,"y":41.7781297,"sch_type":"Charter","sch_addr":"6420 S University Ave, 60637","x":-87.59811392,"grades":"6, 7, 8, 9, 10, 11, 12"},"geometry":{"type":"Point","coordinates":[-87.59811392,41.7781297]}},{"type":"Feature","properties":{"school_nm":"UNO CHTR - GARCIA","network_num":"Network 8","school_id":400085,"y":41.80917079,"sch_type":"Charter","sch_addr":"4248 W 47th St, 60632","x":-87.73046685,"grades":"9, 10, 11, 12"},"geometry":{"type":"Point","coordinates":[-87.73046685,41.80917079]}},{"type":"Feature","properties":{"school_nm":"URBAN PREP CHTR - BRONZEVILLE","network_num":"Network 9","school_id":400105,"y":41.83111753,"sch_type":"Charter","sch_addr":"521 E 35th St, 60616","x":-87.61362865,"grades":"9, 10, 11, 12"},"geometry":{"type":"Point","coordinates":[-87.61362865,41.83111753]}},{"type":"Feature","properties":{"school_nm":"URBAN PREP CHTR - ENGLEWOOD","network_num":"Network 11","school_id":400086,"y":41.78149782,"sch_type":"Charter","sch_addr":"6201 S Stewart Ave, 60621","x":-87.63435669,"grades":"9, 10, 11, 12"},"geometry":{"type":"Point","coordinates":[-87.63435669,41.78149782]}},{"type":"Feature","properties":{"school_nm":"URBAN PREP CHTR - WEST","network_num":"Network 6","school_id":400102,"y":41.86254002,"sch_type":"Charter","sch_addr":"1326 W 14th Pl, 60608","x":-87.66010654,"grades":"9, 10, 11, 12"},"geometry":{"type":"Point","coordinates":[-87.66010654,41.86254002]}},{"type":"Feature","properties":{"school_nm":"YOUNG WOMEN'S LEADERSHIP CHTR","network_num":"Network 9","school_id":400087,"y":41.84454381,"sch_type":"Charter","sch_addr":"2641 S Calumet Ave, 60616","x":-87.6187238,"grades":"7, 8, 9, 10, 11, 12"},"geometry":{"type":"Point","coordinates":[-87.6187238,41.84454381]}},{"type":"Feature","properties":{"school_nm":"CICS - LONGWOOD","network_num":"Network 11","school_id":400033,"y":41.72013,"sch_type":"Charter","sch_addr":"1309 W 95th St, 60643","x":-87.65663,"grades":"9, 10, 11, 12"},"geometry":{"type":"Point","coordinates":[-87.65663,41.72013]}}]}